City,Lat,Lng,Max Temp,Humidity,Cloudiness,Wind Speed,Country,Date
Poum,-20.2333,164.0167,78.51,70,6,6.17,NC,1649899648
Yerbogachën,61.2767,108.0108,32.45,96,100,15.48,RU,1649899648
Punta Arenas,-53.15,-70.9167,50.11,87,20,26.46,CL,1649899648
Nikolskoye,59.7035,30.7861,36.72,94,89,2.35,RU,1649899499
Atuona,-9.8,-139.0333,78.98,78,69,18.3,PF,1649899649
Norman Wells,65.282,-126.8329,23.04,68,75,16.11,CA,1649899649
Taywarah,33.35,64.4167,42.87,35,0,3.49,AF,1649899649
Areosa,41.7178,-8.8571,53.69,91,100,5.26,PT,1649899650
Riyadh,24.6877,46.7219,80.74,30,100,7.0,SA,1649899585
Dikson,73.5069,80.5464,19.51,96,100,9.19,RU,1649899650
Busselton,-33.65,115.3333,61.16,65,0,8.41,AU,1649899373
Alta Floresta,-9.8756,-56.0861,74.26,91,11,2.04,BR,1649899650
Faanui,-16.4833,-151.75,81.41,73,17,14.03,PF,1649899651
Thompson,55.7435,-97.8558,21.36,63,100,13.8,CA,1649899594
Black River,18.0264,-77.8487,78.19,76,6,6.49,JM,1649899651
Champerico,14.3,-91.9167,84.63,65,96,7.72,GT,1649899651
Tocopilla,-22.092,-70.1979,64.71,70,13,6.24,CL,1649899652
Havre-St-Pierre,50.2334,-63.5986,34.16,93,100,2.3,CA,1649899652
Upernavik,72.7868,-56.1549,-8.0,99,94,7.61,GL,1649899652
Aban,56.67,96.06,34.25,72,35,7.02,RU,1649899652
São Filipe,14.8961,-24.4956,71.38,76,75,5.46,CV,1649899653
Khatanga,71.9667,102.5,6.51,93,100,7.78,RU,1649899653
Rikitea,-23.1203,-134.9692,77.85,71,12,18.34,PF,1649899392
Timizart,36.8,4.2667,52.34,88,100,3.85,DZ,1649899653
Ruwi,23.5996,58.5507,80.29,42,64,3.33,OM,1649899654
Hilo,19.7297,-155.09,85.28,80,100,8.05,US,1649899654
Hermanus,-34.4187,19.2345,62.8,87,100,8.32,ZA,1649899654
Port Alfred,-33.5906,26.891,65.84,87,94,11.68,ZA,1649899655
Isla Vista,34.4133,-119.861,67.98,43,0,8.99,US,1649899362
Belturbet,54.1,-7.45,45.97,97,78,3.4,IE,1649899655
Hong Kong,22.2855,114.1577,79.95,73,0,8.01,HK,1649899589
George Town,5.4112,100.3354,84.13,87,20,3.44,MY,1649899396
Hohhot,40.8106,111.6522,44.89,36,0,8.95,CN,1649899655
Cam Ranh,11.9214,109.1591,82.36,74,100,2.3,VN,1649899656
Pangnirtung,66.1451,-65.7125,-6.95,97,82,5.79,CA,1649899656
Srednekolymsk,67.45,153.6833,5.18,86,99,9.13,RU,1649899657
Castro,-24.7911,-50.0119,61.56,97,11,0.47,BR,1649899657
Ushuaia,-54.8,-68.3,51.46,71,40,36.82,AR,1649899429
Cape Town,-33.9258,18.4232,63.91,86,0,18.41,ZA,1649899657
Kumul,42.8,93.45,49.91,16,0,18.16,CN,1649899658
Āsind,25.7333,74.3333,78.98,27,0,13.96,IN,1649899658
Butaritari,3.0707,172.7902,81.73,76,21,16.04,KI,1649899658
Niamey,13.5137,2.1098,91.69,40,0,12.66,NE,1649899659
Nadym,65.5333,72.5167,30.74,91,100,7.96,RU,1649899659
Hasaki,35.7333,140.8333,54.0,86,100,26.08,JP,1649899660
Mataura,-46.1927,168.8643,60.48,53,21,4.68,NZ,1649899660
Jevargi,17.0167,76.7667,85.42,43,100,8.57,IN,1649899660
Catabola,-12.15,17.2833,61.47,96,100,1.41,AO,1649899660
Rūdsar,37.1376,50.288,53.58,88,81,7.85,IR,1649899661
Yellowknife,62.456,-114.3525,14.29,67,0,6.91,CA,1649899398
Albany,42.6001,-73.9662,66.72,73,77,3.78,US,1649899304
Mahébourg,-20.4081,57.7,78.26,88,75,14.97,MU,1649899661
Hobart,-42.8794,147.3294,65.26,58,0,10.36,AU,1649899527
Klaksvík,62.2266,-6.589,41.92,86,34,17.67,FO,1649899660
Perumpāvūr,10.1333,76.4833,76.91,94,100,0.0,IN,1649899662
Chui,-33.6971,-53.4616,54.99,72,0,7.85,UY,1649899662
Qasigiannguit,68.8193,-51.1922,19.65,99,100,6.29,GL,1649899662
Alofi,-19.0595,-169.9187,78.69,94,15,5.75,NU,1649899664
Vilhena,-12.7406,-60.1458,69.58,95,44,1.28,BR,1649899506
Nemuro,43.3236,145.575,33.55,71,18,6.73,JP,1649899664
Puerto Ayora,-0.7393,-90.3518,76.89,88,99,6.82,EC,1649899529
East London,-33.0153,27.9116,68.04,89,100,7.27,ZA,1649899665
Kenai,60.5544,-151.2583,45.03,57,0,8.05,US,1649899665
Camacha,33.0833,-16.3333,58.42,72,40,8.05,PT,1649899665
Bethel,41.3712,-73.414,66.29,74,0,0.0,US,1649899665
Mitsamiouli,-11.3847,43.2844,81.55,75,79,8.86,KM,1649899666
Laguna,38.421,-121.4238,59.76,50,100,12.66,US,1649899515
Phek,25.6667,94.5,61.56,79,21,2.75,IN,1649899666
Airai,-8.9266,125.4092,71.87,65,100,0.74,TL,1649899666
Longyearbyen,78.2186,15.6401,17.44,67,75,5.75,SJ,1649899667
Avarua,-21.2078,-159.775,86.05,70,20,4.61,CK,1649899667
Cherskiy,68.75,161.3,10.99,88,100,8.66,RU,1649899667
Tingo María,-9.2895,-76.0088,70.56,98,100,1.97,PE,1649899668
Kenora,49.8167,-94.4337,31.17,93,100,18.41,CA,1649899492
Bielsko-Biala,49.8224,19.0469,45.93,74,77,4.81,PL,1649899668
Isangel,-19.55,169.2667,83.82,71,13,5.73,VU,1649899668
Bredasdorp,-34.5322,20.0403,62.71,84,100,4.54,ZA,1649899669
Saint-Pierre,-21.3393,55.4781,73.29,89,20,5.75,RE,1649899669
Magistral'nyy,56.1725,107.4458,35.58,65,100,8.43,RU,1649899669
Presidencia Roque Sáenz Peña,-26.7852,-60.4388,60.4,78,6,6.62,AR,1649899670
Lata,40.1629,-8.3327,49.12,98,100,2.04,PT,1649899670
Belmonte,-15.8631,-38.8828,78.3,82,7,6.44,BR,1649899671
Saskylakh,71.9167,114.0833,1.06,95,100,9.95,RU,1649899671
Alice Springs,-23.7,133.8833,89.15,20,0,9.22,AU,1649899669
Zhigansk,66.7697,123.3711,23.18,94,100,21.21,RU,1649899672
Lompoc,34.6391,-120.4579,62.78,61,0,23.02,US,1649899672
Kavieng,-2.5744,150.7967,85.62,68,63,11.5,PG,1649899393
San Patricio,28.017,-97.5169,86.09,82,0,11.77,US,1649899672
Port Lincoln,-34.7333,135.8667,66.54,81,100,19.62,AU,1649899508
Kaitangata,-46.2817,169.8464,61.54,54,17,6.82,NZ,1649899673
Wagar,16.1525,36.2032,84.7,37,4,7.25,SD,1649899673
Pleasanton,37.6624,-121.8747,58.28,55,20,16.11,US,1649899480
Kandrian,-6.2167,149.55,87.21,62,100,2.64,PG,1649899673
Nanortalik,60.1432,-45.2371,35.06,83,100,2.62,GL,1649899663
Lavrentiya,65.5833,-171.0,26.76,85,100,13.42,RU,1649899674
Manaure,11.7751,-72.4445,79.77,74,9,20.98,CO,1649899674
Vaini,-21.2,-175.2,84.36,89,40,10.36,TO,1649899675
Verkh-Usugli,52.7,115.1667,34.97,37,16,9.24,RU,1649899675
Mar del Plata,-38.0023,-57.5575,58.87,80,0,8.01,AR,1649899675
Kapaa,22.0752,-159.319,82.38,74,75,14.97,US,1649899418
Botou,38.0667,116.5667,55.74,27,100,5.53,CN,1649899676
Husavik,66.0449,-17.3389,33.6,83,50,15.5,IS,1649899676
New Norfolk,-42.7826,147.0587,64.92,54,100,1.99,AU,1649899676
Ostrovnoy,68.0531,39.5131,10.18,97,82,7.09,RU,1649899677
Nikel,69.4128,30.222,21.38,99,100,2.8,RU,1649899677
Tasiilaq,65.6145,-37.6368,28.56,83,100,6.29,GL,1649899677
Mugma,23.7667,86.7333,82.81,60,9,4.09,IN,1649899678
Bambous Virieux,-20.3428,57.7575,78.22,88,75,14.97,MU,1649899678
Neftçala,39.3742,49.2472,48.15,54,2,17.13,AZ,1649899678
Japura,-0.3167,102.35,76.12,96,99,1.9,ID,1649899679
Pangai,-19.8,-174.35,86.11,66,20,6.91,TO,1649899679
Verkhnyaya Inta,65.9811,60.3094,32.4,94,100,6.4,RU,1649899679
Grand Gaube,-20.0064,57.6608,78.39,83,29,7.0,MU,1649899680
Saint George,37.1041,-113.5841,62.44,8,0,17.27,US,1649899511
Rocky Mountain House,52.3668,-114.9188,24.91,42,100,4.61,CA,1649899680
Barrow,71.2906,-156.7887,-0.38,78,0,10.36,US,1649899680
Souillac,-20.5167,57.5167,77.38,88,75,14.97,MU,1649899681
Hearst,49.6835,-83.6665,35.85,88,60,12.44,CA,1649899681
Matagami,49.7502,-77.6328,35.71,64,0,6.91,CA,1649899681
Hokitika,-42.7167,170.9667,60.39,56,2,4.12,NZ,1649899682
Kununurra,-15.7667,128.7333,84.18,79,93,6.91,AU,1649899682
Nortelândia,-14.4547,-56.8028,75.2,89,16,1.57,BR,1649899682
Sola,-13.8833,167.55,82.87,73,25,12.77,VU,1649899567
Talavera de la Reina,39.9635,-4.8308,49.86,76,6,5.39,ES,1649899683
Avera,33.194,-82.5271,71.55,67,100,6.82,US,1649899683
Saint-Philippe,-21.3585,55.7679,73.22,89,52,14.0,RE,1649899641
Taoudenni,22.6783,-3.9836,80.08,14,0,10.42,ML,1649899684
Santa Cruz de Tenerife,28.4682,-16.2546,68.65,84,100,19.57,ES,1649899684
Vila Franca do Campo,37.7167,-25.4333,61.21,84,6,7.96,PT,1649899685
Arraial do Cabo,-22.9661,-42.0278,76.96,90,90,7.7,BR,1649899556
Saint Paul Harbor,57.79,-152.4072,45.91,46,0,13.8,US,1649899685
Inírida,3.8653,-67.9239,77.23,89,100,2.84,CO,1649899686
Mana,5.6592,-53.7767,76.69,87,35,10.63,GF,1649899686
Nizhniy Kuranakh,58.8353,125.4869,31.78,80,100,11.99,RU,1649899686
Kabare,-2.4683,28.8242,61.03,92,90,0.72,CD,1649899687
Kruisfontein,-34.0033,24.7314,57.88,83,24,7.96,ZA,1649899687
Broome,42.2506,-75.833,66.58,68,40,6.91,US,1649899687
Plouzané,48.3833,-4.6167,50.05,100,100,4.61,FR,1649899688
Oodweyne,9.4092,45.064,76.32,52,100,11.56,SO,1649899688
Sitka,57.0531,-135.33,44.49,18,0,10.36,US,1649899688
Aksarka,66.5606,67.7975,33.22,100,100,3.62,RU,1649899689
Patea,-39.7583,174.4833,60.3,56,0,8.52,NZ,1649899689
Pantai Remis,4.4557,100.6288,80.62,82,100,3.6,MY,1649899690
Saldanha,-33.0117,17.9442,62.02,89,100,19.77,ZA,1649899690
Burnie,-41.0667,145.9167,65.91,64,100,7.99,AU,1649899690
Aswān,24.0934,32.907,67.3,27,0,9.22,EG,1649899691
Surgut,61.25,73.4167,39.38,48,20,4.47,RU,1649899691
Marabu,4.4148,114.0089,84.34,79,20,2.3,MY,1649899691
Zeya,53.75,127.2667,36.36,25,65,5.21,RU,1649899692
Östersund,63.1792,14.6357,32.45,74,100,5.75,SE,1649899692
Seoul,37.5683,126.9778,54.84,62,100,18.41,KR,1649899253
Amahai,-3.3333,128.9167,84.61,67,51,0.54,ID,1649899692
Avilés,43.5547,-5.9248,55.38,89,0,0.0,ES,1649899514
Soyo,-6.1349,12.3689,77.83,88,91,2.8,AO,1649899693
Qaanaaq,77.484,-69.3632,-2.07,93,100,5.99,GL,1649899627
Inhambane,-23.865,35.3833,75.78,91,42,10.4,MZ,1649899694
San Quintín,30.4833,-115.95,61.9,57,4,17.9,MX,1649899694
Porto Murtinho,-21.6989,-57.8825,75.72,72,100,9.64,BR,1649899694
Obodivka,48.4051,29.2477,41.88,87,100,11.34,UA,1649899695
Bow Island,49.8668,-111.3684,21.47,86,100,5.75,CA,1649899398
Narsaq,60.9167,-46.05,48.42,60,100,6.51,GL,1649899695
Petropavlovsk-Kamchatskiy,53.0452,158.6483,37.99,45,75,13.42,RU,1649899521
Corumbá,-19.0092,-57.6533,72.82,99,100,4.16,BR,1649899696
Qaqortoq,60.7167,-46.0333,37.18,62,100,4.7,GL,1649899668
Gazli,40.1333,63.45,67.1,45,8,12.66,UZ,1649899696
Anadyr,64.75,177.4833,28.9,86,40,31.32,RU,1649899685
Sioux Lookout,50.1001,-91.917,28.47,93,100,8.05,CA,1649899661
Cortez,37.3489,-108.5859,43.56,15,0,20.71,US,1649899697
Carutapera,-1.195,-46.02,76.77,93,100,5.91,BR,1649899697
Lieksa,63.3167,30.0167,29.14,92,100,3.4,FI,1649899697
Koumac,-20.5667,164.2833,80.85,62,4,4.36,NC,1649899698
Nushki,29.5542,66.0215,64.85,13,0,2.19,PK,1649899698
Pacific Grove,36.6177,-121.9166,60.03,66,0,11.5,US,1649899531
Micheweni,-4.9667,39.8333,78.33,86,85,5.28,TZ,1649899698
Torbay,47.6666,-52.7314,33.58,92,100,18.41,CA,1649899490
Andenes,69.3143,16.1194,31.98,93,100,5.75,NO,1649899699
Ligayan,4.6533,119.4706,81.9,73,100,0.74,PH,1649899699
Goderich,43.7501,-81.7165,61.12,88,100,17.27,CA,1649899700
Jamestown,42.097,-79.2353,66.18,56,100,4.61,US,1649899650
Emporia,38.4039,-96.1817,48.4,31,0,10.36,US,1649899700
Peniche,39.3558,-9.3811,57.11,86,100,14.65,PT,1649899700
Acará,-1.9608,-48.1967,74.07,99,100,1.74,BR,1649899701
Hirara,24.8,125.2833,78.66,83,40,4.61,JP,1649899701
Dingle,10.9995,122.6711,81.36,75,100,2.89,PH,1649899680
Tacoronte,28.4769,-16.4102,62.19,86,100,23.0,ES,1649899701
Ugoofaaru,5.6667,73.0,83.82,74,100,10.25,MV,1649899495
Quaraí,-30.3875,-56.4514,52.75,62,0,8.61,BR,1649899702
Merauke,-8.4667,140.3333,85.96,69,82,2.17,ID,1649899702
Bluff,-46.6,168.3333,60.8,77,79,19.35,NZ,1649899702
Lüderitz,-26.6481,15.1594,60.42,83,6,10.09,NA,1649899703
Wembley,-31.9333,115.8,69.21,67,0,18.41,AU,1649899703
Ponta do Sol,32.6667,-17.1,63.72,82,99,2.91,PT,1649899703
Chokurdakh,70.6333,147.9167,2.89,87,6,3.96,RU,1649899704
Tuktoyaktuk,69.4541,-133.0374,1.4,71,40,12.66,CA,1649899704
Bulgan,48.8125,103.5347,23.14,81,100,5.32,MN,1649899704
Kočevje,45.6433,14.8633,41.58,92,15,1.23,SI,1649899705
Rundu,-17.9333,19.7667,67.75,73,100,4.09,NA,1649899705
Qui Nhon,13.7667,109.2333,79.57,80,95,1.81,VN,1649899687
Moerai,-22.4333,-151.3333,80.71,76,100,16.96,PF,1649899706
Pisco,-13.7,-76.2167,66.02,82,0,8.05,PE,1649899706
Korla,41.7597,86.1469,57.49,26,9,1.72,CN,1649899707
Banda Aceh,5.5577,95.3222,82.2,76,100,5.28,ID,1649899707
Fallon,39.4735,-118.7774,53.47,20,100,17.27,US,1649899707
Civita Castellana,42.2952,12.4092,54.88,75,100,2.89,IT,1649899708
Gävle,60.6745,17.1417,38.35,69,100,1.01,SE,1649899708
Olinda,-8.0089,-34.8553,82.13,69,0,4.61,BR,1649899708
Dunda,-8.1167,34.25,61.9,98,100,1.79,TZ,1649899708
Miramar,25.9873,-80.2323,78.03,76,0,13.8,US,1649899709
Yokaichi,35.1139,136.2037,68.14,77,100,1.9,JP,1649899709
Sabha,27.0377,14.4283,78.93,10,4,5.95,LY,1649899709
Karasjok,69.4719,25.5112,25.5,94,100,2.82,NO,1649899710
Lebu,-37.6167,-73.65,52.21,89,0,16.28,CL,1649899589
Autazes,-3.5797,-59.1306,75.42,97,100,2.68,BR,1649899710
Severo-Kuril'sk,50.6789,156.125,30.45,78,96,26.64,RU,1649899710
Bulungu,-4.55,18.6,70.95,95,100,2.73,CD,1649899711
Kasungu,-13.0333,33.4833,63.43,98,17,3.78,MW,1649899711
Bela,25.9333,81.9833,85.41,17,38,5.08,IN,1649899711
Bentiu,9.2333,29.8333,83.14,52,44,3.83,SS,1649899712
Leningradskiy,69.3833,178.4167,6.28,91,90,14.38,RU,1649899627
Graciano Sánchez,23.9167,-99.2833,95.95,13,4,8.28,MX,1649899712
Havelock,34.8791,-76.9013,71.02,84,0,13.8,US,1649899712
Dvinskoy Bereznik,62.8551,42.7072,25.52,96,66,5.79,RU,1649899713
Bandundu Province,-3.3167,17.3667,72.77,90,100,2.06,CD,1649899713
Arrondissement de Rochefort,45.9167,-1.0,51.85,92,100,2.82,FR,1649899713
Kamenka,51.3223,42.7678,48.94,92,100,13.85,RU,1649899714
Aksarayskiy,46.7924,48.0119,47.52,60,100,5.28,RU,1649899714
Jaguaruna,-28.615,-49.0256,68.07,88,100,5.84,BR,1649899714
Mandāwar,29.5,78.1333,77.83,18,7,2.33,IN,1649899715
Minudasht,37.2289,55.3747,53.92,93,64,5.5,IR,1649899715
Jaru,-10.4389,-62.4664,74.93,92,62,1.45,BR,1649899527
Rocha,-34.4833,-54.3333,50.0,78,0,5.19,UY,1649899715
Provideniya,64.3833,-173.3,30.36,86,100,15.99,RU,1649899716
Ceres,37.5949,-120.9577,62.8,40,20,10.36,US,1649899716
Northam,51.0333,-4.2167,46.38,95,8,4.74,GB,1649899716
Miyako,39.6367,141.9525,40.95,87,100,5.95,JP,1649899716
Tiznit Province,29.5833,-9.5,59.45,64,0,2.17,MA,1649899717
San Juan,-31.5375,-68.5364,69.22,37,13,12.44,AR,1649899510
Ancud,-41.8697,-73.8203,52.23,91,33,3.49,CL,1649899717
Solnechnyy,50.7214,136.6319,32.56,75,100,0.54,RU,1649899718
Pontianak,-0.0333,109.3333,82.38,83,20,3.44,ID,1649899709
Arona,28.0996,-16.681,59.83,70,75,18.41,ES,1649899718
Khandyga,62.6667,135.6,24.78,87,93,3.87,RU,1649899718
Lubango,-14.9172,13.4925,56.35,90,9,3.44,AO,1649899718
Tiksi,71.6872,128.8694,-0.81,96,100,6.44,RU,1649899719
Esperance,-33.8667,121.9,64.24,76,97,15.77,AU,1649899719
Takhatgarh,25.3333,73.0,76.06,34,0,5.28,IN,1649899719
Pemangkat,1.1667,108.9667,81.55,78,83,4.81,ID,1649899720
Strathblane,55.986,-4.3066,49.6,89,98,3.44,GB,1649899720
Sungai Raya,0.7,108.9,82.83,76,99,3.98,ID,1649899721
Cidreira,-30.1811,-50.2056,68.14,72,100,7.96,BR,1649899722
Katsuura,35.1333,140.3,58.17,88,100,23.02,JP,1649899722
Geraldton,-28.7667,114.6,68.41,77,40,9.22,AU,1649899722
Cayenne,4.9333,-52.3333,81.09,1,75,8.01,GF,1649899723
Sakaiminato,35.55,133.2333,57.18,94,75,14.97,JP,1649899723
Nachingwea,-10.3833,38.7667,69.03,99,97,3.04,TZ,1649899723
Bogorodskoye,56.55,37.8833,31.42,94,81,9.53,RU,1649899724
Torit,4.4133,32.5678,75.43,63,93,3.24,SS,1649899724
Laas,46.6166,10.7002,49.08,85,92,1.3,IT,1649899724
Maningrida,-12.0667,134.2667,86.88,66,13,9.26,AU,1649899725
Tuatapere,-46.1333,167.6833,61.0,56,61,2.01,NZ,1649899651
Ilulissat,69.2167,-51.1,19.42,79,75,13.8,GL,1649899725
Mogadishu,2.0371,45.3438,81.88,77,50,8.43,SO,1649899725
Iquitos,-3.7481,-73.2472,77.04,100,75,3.44,PE,1649899726
Chengdu,30.6667,104.0667,62.49,88,75,4.47,CN,1649899726
Coyhaique,-45.5752,-72.0662,51.75,71,0,4.61,CL,1649899579
Kars,40.602,43.095,9.05,92,42,0.0,TR,1649899726
Oddur,4.1213,43.8894,73.99,86,45,13.09,SO,1649899727
Nālūt,30.3333,10.85,75.34,11,100,10.85,LY,1649899727
Chase,50.8165,-119.6857,44.78,47,97,6.33,CA,1649899521
Turki,51.987,43.2731,48.04,89,100,14.63,RU,1649899727
Darien,41.752,-87.974,53.11,92,100,17.27,US,1649899728
Matara,5.9485,80.5353,77.95,88,97,3.91,LK,1649899728
Salalah,17.0151,54.0924,80.69,74,75,3.44,OM,1649899728
Sīrjān,29.452,55.6814,59.54,36,12,2.84,IR,1649899729
Durant,33.994,-96.3708,62.76,40,0,11.5,US,1649899729
Nabire,-3.3667,135.4833,84.88,71,29,1.54,ID,1649899729
Calama,-22.4667,-68.9333,52.29,19,0,9.22,CL,1649899447
Talnakh,69.4865,88.3972,29.21,96,100,5.66,RU,1649899730
Bilma,18.6853,12.9164,84.04,8,97,7.27,NE,1649899730
Smidovich,48.6,133.8167,38.48,65,100,12.48,RU,1649899730
Arman',59.7,150.1667,30.02,57,100,6.64,RU,1649899731
Bereda,43.2686,-7.5406,47.57,100,100,0.72,ES,1649899731
Jacksonville Beach,30.2947,-81.3931,74.05,77,75,16.11,US,1649899675
Ribeira Grande,38.5167,-28.7,59.52,59,0,14.16,PT,1649899731
Maner,25.65,84.8833,80.51,35,43,1.86,IN,1649899732
Faya,18.3851,42.4509,62.71,40,5,1.43,SA,1649899732
Colares,38.7992,-9.4469,57.29,75,100,23.0,PT,1649899732
Tagusao,9.1924,117.8141,82.22,75,100,6.53,PH,1649899733
Lyuban',52.7985,28.0048,38.16,71,38,5.1,BY,1649899733
Sochi,43.6,39.7303,44.1,86,100,14.85,RU,1649899733
Adeje,28.1227,-16.726,64.02,70,75,18.41,ES,1649899734
Toguchin,55.2353,84.3858,33.89,69,5,4.97,RU,1649899734
Deputatsky,69.3,139.9,2.46,94,100,4.12,RU,1649899705
Igboho,8.8333,3.75,74.28,87,99,7.18,NG,1649899734
Bariloche,-41.1456,-71.3082,44.35,53,0,4.61,AR,1649899735
Shuangyang,43.5242,125.6736,53.29,28,87,9.13,CN,1649899735
Carnarvon,-24.8667,113.6333,77.07,50,0,18.41,AU,1649899735
Lagoa,39.05,-27.9833,58.28,64,0,19.26,PT,1649899494
San Cristobal,7.7669,-72.225,77.18,69,97,2.01,VE,1649899736
Shimoda,34.6667,138.95,57.56,82,99,19.64,JP,1649899736
Panara,22.0667,78.55,81.19,37,93,5.53,IN,1649899736
Vardø,70.3705,31.1107,29.79,81,86,7.92,NO,1649899694
Gamba,-2.65,10.0,76.98,90,100,1.83,GA,1649899737
Port Elizabeth,-33.918,25.5701,64.31,93,40,18.01,ZA,1649899737
Akdepe,42.0551,59.3788,64.49,35,8,14.67,TM,1649899737
San Jose,37.3394,-121.895,60.31,50,75,14.97,US,1649899708
Daru,-9.0763,143.2092,84.79,72,100,6.17,PG,1649899738
Grindavik,63.8424,-22.4338,45.07,87,100,24.16,IS,1649899646
Saint-François,46.4154,3.9054,50.41,94,100,2.3,FR,1649899738
Saint Anthony,45.0205,-93.218,37.92,56,20,13.8,US,1649899738
Mastic Beach,40.7668,-72.8521,60.71,84,0,6.91,US,1649899739
Pandharpur,17.6667,75.3333,89.69,30,100,1.52,IN,1649899509
Sundsvall,62.3913,17.3063,31.96,93,20,3.44,SE,1649899739
Vila Velha,-20.3297,-40.2925,80.55,86,0,5.75,BR,1649899500
Mizdah,31.4451,12.9801,64.2,35,100,14.81,LY,1649899739
Nchelenge,-9.3451,28.734,67.93,91,77,5.66,ZM,1649899740
Vanino,49.0869,140.2543,35.92,63,11,3.58,RU,1649899740
Krefeld,51.3333,6.5667,55.99,93,100,2.3,DE,1649899740
Bang Mun Nak,16.0278,100.3792,89.98,100,30,6.06,TH,1649899741
Eldorado,-23.7869,-54.2836,67.57,97,30,4.92,BR,1649899741
Kommunar,59.6206,30.39,36.36,90,95,2.89,RU,1649899741
Hithadhoo,-0.6,73.0833,83.75,73,100,9.8,MV,1649899742
Los Llanos de Aridane,28.6585,-17.9182,60.55,95,40,18.41,ES,1649899670
Makar'yev,57.8797,43.8069,35.62,88,100,11.54,RU,1649899742
Potiskum,11.7091,11.0694,84.47,44,100,9.89,NG,1649899743
Barra de Tecoanapa,16.5167,-98.75,81.05,71,99,6.64,MX,1649899743
Ilmajoki,62.7333,22.5667,36.21,55,0,4.61,FI,1649899743
Batagay-Alyta,67.8006,130.4114,4.24,88,99,3.0,RU,1649899744
Soanierana Ivongo,-16.9167,49.5833,73.47,92,60,5.39,MG,1649899744
Fershampenuaz,53.5202,59.8117,46.63,88,11,5.64,RU,1649899745
Flinders,-34.5833,150.8552,73.18,72,0,4.0,AU,1649899745
Shizunai-furukawachō,42.3339,142.3669,38.05,84,100,11.07,JP,1649899746
Nome,64.5011,-165.4064,36.16,75,100,9.22,US,1649899746
Buala,-8.145,159.5921,85.35,68,33,8.66,SB,1649899747
Lazarev,52.225,141.5131,28.99,78,9,8.86,RU,1649899747
Kiryat Gat,31.61,34.7642,56.39,71,0,4.97,IL,1649899747
Assiut,27.181,31.1837,51.98,41,0,12.53,EG,1649899705
Kaiyuan,23.6977,103.3037,69.76,66,94,8.14,CN,1649899748
Villamartín,36.8598,-5.6449,55.35,80,3,1.12,ES,1649899748
Tongchuanshi,35.0806,109.0897,47.01,82,100,13.56,CN,1649899748
Lensk,60.7253,114.9278,32.54,94,100,14.94,RU,1649899749
Jijiga,9.35,42.8,67.51,62,85,0.25,ET,1649899749
Matamoros,25.5333,-103.25,86.11,5,20,10.36,MX,1649899750
Am Timan,11.0297,20.2827,85.93,48,100,7.61,TD,1649899750
Vitim,59.4511,112.5578,32.09,95,100,15.9,RU,1649899750
Clifton,40.8584,-74.1638,70.39,71,0,5.75,US,1649899507
Neryungri,56.6709,124.6491,28.67,71,100,10.22,RU,1649899751
Codrington,-38.2667,141.9667,71.62,36,100,11.21,AU,1649899751
Maceió,-9.6658,-35.7353,76.44,88,0,3.44,BR,1649899559
Puerto Colombia,10.9878,-74.9547,80.69,86,30,25.01,CO,1649899752
Bandarbeyla,9.4942,50.8122,78.96,84,13,1.97,SO,1649899506
Amuntai,-2.4177,115.2494,82.99,76,99,0.63,ID,1649899752
San Antonio,29.4241,-98.4936,87.06,18,0,10.36,US,1649899592
Biak,-0.9131,122.8766,82.26,69,97,4.36,ID,1649899753
Ayan,56.45,138.1667,31.46,64,19,11.65,RU,1649899753
Kolokani,13.5728,-8.0339,87.33,13,94,6.08,ML,1649899755
Dukat,62.55,155.55,10.18,84,100,6.15,RU,1649899755
Fairbanks,64.8378,-147.7164,44.24,37,75,1.99,US,1649899683
Radomsko,51.0671,19.4448,42.19,63,100,9.04,PL,1649899755
Umm Kaddadah,13.6017,26.6876,78.53,12,32,17.43,SD,1649899756
Ishigaki,24.3448,124.1572,78.93,83,75,5.75,JP,1649899756
Bathsheba,13.2167,-59.5167,79.41,69,40,17.27,BB,1649899756
Pierre,44.3683,-100.351,27.86,58,100,39.12,US,1649899757
Zhaotong,27.3167,103.7167,56.16,87,100,6.89,CN,1649899757
Sassandra,4.95,-6.0833,78.26,83,100,8.59,CI,1649899757
Santa Rosa,14.3122,121.1114,88.09,64,75,3.87,PH,1649899758
Te Anau,-45.4167,167.7167,59.54,53,17,0.4,NZ,1649899758
Gravdal,68.1214,13.5031,35.73,77,22,7.16,NO,1649899758
Luganville,-15.5333,167.1667,85.05,68,23,7.61,VU,1649899759
Yulara,-25.2406,130.9889,87.64,20,87,6.91,AU,1649899747
Maiduguri,11.8464,13.1603,83.95,44,57,8.03,NG,1649899759
Mount Gambier,-37.8333,140.7667,69.71,40,100,11.5,AU,1649899759
Dagda,56.0951,27.5372,36.19,71,87,1.99,LV,1649899760
Eilat,29.5581,34.9482,62.44,51,0,11.5,IL,1649899647
Sharkan,57.2989,53.8712,36.84,97,100,2.82,RU,1649899760
Buraidah,26.326,43.975,75.65,26,100,3.69,SA,1649899761
São João da Barra,-21.6403,-41.0511,77.68,89,100,6.76,BR,1649899761
Fukuechō,32.6881,128.8419,59.36,100,75,20.71,JP,1649899650
Itarema,-2.9248,-39.9167,77.58,86,83,6.73,BR,1649899761
Iqaluit,63.7506,-68.5145,-4.27,76,20,12.66,CA,1649899741
Lorengau,-2.0226,147.2712,85.77,69,99,9.1,PG,1649899762
Chimbote,-9.0853,-78.5783,65.98,85,100,9.48,PE,1649899462
Coquimbo,-29.9533,-71.3436,53.33,100,20,4.61,CL,1649899762
Yakeshi,49.2833,120.7333,36.95,28,4,6.76,CN,1649899763
Apatity,67.5641,33.4031,21.22,97,100,1.79,RU,1649899763
Barcelos,41.5388,-8.6151,53.92,93,100,3.36,PT,1649899763
Paraná,-31.732,-60.5238,59.58,55,0,5.53,AR,1649899702
Santiago del Estero,-27.7951,-64.2615,62.4,76,7,5.68,AR,1649899764
Conceição das Alagoas,-19.9147,-48.3883,74.98,95,98,3.78,BR,1649899764
Mandalgovi,45.7625,106.2708,30.13,42,100,16.55,MN,1649899764
Naustdal,61.509,5.7168,39.13,92,99,3.96,NO,1649899765
Chara,56.9064,118.2631,23.94,71,100,4.76,RU,1649899765
Port Hardy,50.6996,-127.4199,46.4,65,75,12.66,CA,1649899747
Wanning,18.8003,110.3967,79.72,77,4,1.5,CN,1649899765
Batagay,67.6333,134.6333,16.9,85,100,1.95,RU,1649899766
Aurora,39.7294,-104.8319,36.9,32,75,12.66,US,1649899561
Benghazi,32.1167,20.0667,63.72,49,92,25.23,LY,1649899766
Magadan,59.5667,150.8,29.53,58,100,5.57,RU,1649899766
Atar,20.5169,-13.0499,73.74,26,0,9.06,MR,1649899635
Treinta y Tres,-33.2333,-54.3833,49.87,76,0,5.59,UY,1649899767
Xingyi,24.1877,102.817,68.18,46,7,8.88,CN,1649899767
Dudinka,69.4058,86.1778,29.62,96,100,11.16,RU,1649899767
Kalemie,-5.9475,29.1947,70.3,90,34,0.69,CD,1649899768
Port Blair,11.6667,92.75,82.44,83,20,2.3,IN,1649899768
Portland,45.5234,-122.6762,49.35,76,20,5.99,US,1649899528
Quepos,9.4236,-84.1652,80.73,79,88,1.43,CR,1649899768
Wawa,9.9022,4.4192,81.14,63,100,10.8,NG,1649899769
Buin,-33.7333,-70.75,73.06,21,0,3.11,CL,1649899769
Karratha,-20.7377,116.8463,88.09,27,0,3.74,AU,1649899769
Chunhuhub,19.55,-88.6833,81.41,60,100,8.28,MX,1649899770
Lishu,43.3047,124.3278,55.04,26,100,10.4,CN,1649899770
Guiren,33.6697,118.1889,54.19,55,100,8.7,CN,1649899770
Ajdabiya,30.7554,20.2263,66.38,26,50,19.51,LY,1649899771
Fortuna,40.5982,-124.1573,46.92,88,100,24.16,US,1649899771
Dzerzhinsk,56.2389,43.4631,40.82,86,100,11.18,RU,1649899771
Ayagoz,47.9714,80.4392,42.84,54,0,9.53,KZ,1649899771
Kavaratti,10.5669,72.642,80.58,82,100,21.36,IN,1649899772
Alyangula,-13.8483,136.4192,91.27,62,75,4.61,AU,1649899772
Ayamé,5.6083,-3.1563,75.02,92,77,2.68,CI,1649899772
Nyurba,63.2842,118.3319,30.79,96,99,8.84,RU,1649899773
Tupanciretã,-29.0806,-53.8358,58.98,95,100,7.16,BR,1649899773
Leshukonskoye,64.8989,45.7622,26.92,94,100,11.25,RU,1649899774
Verkhoyansk,67.5447,133.385,10.53,86,100,1.21,RU,1649899775
Prince George,53.9166,-122.753,37.26,28,0,12.66,CA,1649899775
Shirokiy,49.758,129.523,34.43,51,0,13.94,RU,1649899725
Sharjah city,25.3573,55.4033,85.98,50,0,4.61,AE,1649899603
Hambantota,6.1241,81.1185,75.54,100,20,0.0,LK,1649899775
Moose Factory,51.2585,-80.6094,28.4,86,100,6.91,CA,1649899776
Quixeramobim,-5.1992,-39.2928,74.03,85,96,3.67,BR,1649899776
Gilgit,35.9221,74.3087,56.55,78,60,1.03,PK,1649899776
Vostok,46.4856,135.8833,36.84,52,99,6.93,RU,1649899661
Āstāneh-ye Ashrafīyeh,37.2596,49.9444,51.73,87,100,6.67,IR,1649899777
Puyo,-1.4667,-77.9833,65.43,99,100,2.64,EC,1649899507
Anzio,41.4853,12.6179,59.02,77,12,5.14,IT,1649899777
Travnik,44.2267,17.6706,45.75,85,0,0.47,BA,1649899778
Juneau,58.3019,-134.4197,42.8,28,20,6.91,US,1649899778
Macklin,52.3334,-109.9348,23.34,68,100,13.27,CA,1649899778
Puerto El Triunfo,13.2833,-88.55,85.12,68,32,7.63,SV,1649899779
Ambulu,-8.345,113.6058,80.24,78,10,2.06,ID,1649899779
Río Tercero,-32.173,-64.1141,53.8,33,0,2.91,AR,1649899523
Sri Aman,1.2376,111.4621,82.45,89,20,2.3,MY,1649899779
Mildura,-34.2,142.15,79.07,33,32,8.05,AU,1649899780
Kovdor,67.5662,30.4758,26.82,98,100,2.68,RU,1649899507
Bengkulu,-3.8004,102.2655,79.43,79,52,2.48,ID,1649899780
Rabo de Peixe,37.8,-25.5833,60.31,72,20,12.66,PT,1649899780
Buchanan,5.8808,-10.0467,78.91,87,100,6.51,LR,1649899781
Yeppoon,-23.1333,150.7333,78.58,71,26,14.12,AU,1649899781
Beatrice,40.2681,-96.747,47.44,25,0,12.66,US,1649899595
Hailar,49.2,119.7,38.01,26,4,6.42,CN,1649899781
Straumen,63.8709,11.2999,30.2,93,22,3.98,NO,1649899782
Podbořany,50.2294,13.4119,49.05,89,96,2.93,CZ,1649899782
Deep River,46.1001,-77.4995,42.94,94,100,9.19,CA,1649899782
Kidal,18.4411,1.4078,84.72,6,25,9.13,ML,1649899783
Alugan,12.2188,125.4808,78.46,82,70,5.95,PH,1649899783
Agirish,61.9247,63.0231,34.99,99,100,5.26,RU,1649899784
Bitung,1.4451,125.1824,88.65,77,100,2.59,ID,1649899784
Richards Bay,-28.783,32.0377,68.34,81,2,6.22,ZA,1649899643
Ouégoa,-20.35,164.4333,82.06,64,6,5.59,NC,1649899784
Ende,-8.8432,121.6623,81.81,81,98,0.18,ID,1649899785
Pochutla,15.7432,-96.4661,82.81,67,99,7.09,MX,1649899785
Maamba,-17.3667,27.15,68.81,73,84,3.36,ZM,1649899785
Chimoio,-19.1164,33.4833,65.59,97,36,2.75,MZ,1649899786
Raudeberg,61.9875,5.1352,37.96,86,13,7.9,NO,1649899786
Iquique,-20.2208,-70.1431,64.44,77,57,3.91,CL,1649899630
Vao,-22.6667,167.4833,75.88,70,10,4.81,NC,1649899741
Krasnosel'kup,65.7,82.4667,33.15,99,100,6.82,RU,1649899786
Passau,48.5712,13.449,53.96,77,62,2.15,DE,1649899517
Puerto Limón,10.0,-83.0333,79.23,81,24,3.83,CR,1649899788
Chongwe,-15.3292,28.682,61.99,88,22,1.97,ZM,1649899788
Alexandria,31.2156,29.9553,55.36,76,0,5.75,EG,1649899788
Urucará,-2.5364,-57.76,76.98,92,100,2.73,BR,1649899789
Aklavik,68.2191,-135.0107,8.1,75,1,10.16,CA,1649899789
Chulym,55.0997,80.9572,35.02,75,2,6.51,RU,1649899789
Benguela,-12.5763,13.4055,78.28,80,91,4.38,AO,1649899790
Moosomin,50.1333,-101.6677,24.66,94,100,25.46,CA,1649899790
Bazarnyy Syzgan,53.7512,46.7535,42.93,93,100,12.19,RU,1649899790
Tlapacoyan,19.9667,-97.2167,83.1,57,100,2.64,MX,1649899791
Māngrol,21.1167,70.1167,77.77,80,0,10.02,IN,1649899791
Tuy Hoa,13.0833,109.3,80.46,83,100,3.02,VN,1649899791
Lewistown,40.5992,-77.5714,72.34,88,0,3.44,US,1649899530
Kloulklubed,7.0419,134.2556,82.9,80,100,17.07,PW,1649899648
Celestún,20.8667,-90.4,80.06,81,100,13.31,MX,1649899792
Waterloo,43.4668,-80.5164,59.65,100,100,12.66,CA,1649899792
Komsomolets,53.7453,62.0708,50.16,89,82,7.92,KZ,1649899793
Severo-Yeniseyskiy,60.3725,93.0408,32.72,87,100,12.71,RU,1649899794
Sonegaon,20.65,78.6833,91.42,29,97,3.94,IN,1649899794
Hazorasp,41.3194,61.0742,60.64,44,2,11.97,UZ,1649899794
Beringovskiy,63.05,179.3167,31.41,99,100,11.25,RU,1649899795
Negara,-8.3151,114.6025,82.51,72,5,3.27,ID,1649899795
Atasū,48.6814,71.6433,46.38,51,0,7.18,KZ,1649899795
Launceston,-41.45,147.1667,63.61,71,100,14.97,AU,1649899796
Guarujá,-23.9931,-46.2564,78.89,26,99,5.44,BR,1649899796
Obo,5.3998,26.4869,72.43,78,100,3.06,CF,1649899796
Ust-Nera,64.5667,143.2,11.77,86,87,3.22,RU,1649899797
Cap Malheureux,-19.9842,57.6142,78.48,83,24,7.0,MU,1649899797
College,64.8569,-147.8028,44.22,36,75,1.01,US,1649899700
Novaya Ladoga,60.1025,32.3019,29.62,94,97,3.76,RU,1649899798
Babol,36.5513,52.679,55.38,88,100,11.5,IR,1649899798
Nelson Bay,-32.7167,152.15,73.0,77,76,9.19,AU,1649899799
Marquette,46.5333,-87.6335,35.04,97,100,4.23,US,1649899799
City of San Pedro,14.35,121.0167,87.31,67,20,2.3,PH,1649899748
Rome,43.2128,-75.4557,67.73,81,40,0.0,US,1649899696
Chuncheng,22.1731,111.7886,77.68,66,21,5.35,CN,1649899799
Salekhard,66.53,66.6019,33.15,100,100,6.17,RU,1649899800
Lázaro Cárdenas,17.9583,-102.2,76.98,83,100,6.11,MX,1649899800
Ibipeba,-11.6408,-42.0111,76.6,57,100,0.16,BR,1649899801
Farafangana,-22.8167,47.8333,74.3,86,64,7.14,MG,1649899700
Mossamedes,-15.1961,12.1522,76.55,82,0,2.91,AO,1649899802
Kahului,20.8947,-156.47,84.22,48,40,23.02,US,1649899561
Emerald,-23.5333,148.1667,82.35,57,75,9.22,AU,1649899803
Southbridge,42.0751,-72.0334,61.2,85,100,5.21,US,1649899747
Kabanjahe,3.1001,98.4908,71.82,74,100,0.72,ID,1649899804
Manbij,36.5281,37.9549,41.88,36,5,9.15,SY,1649899804
Naze,28.3667,129.4833,70.72,84,96,6.15,JP,1649899805
Loandjili,-4.7561,11.8578,77.09,91,49,2.46,CG,1649899806
Chaoyang,41.5703,120.4586,58.84,21,1,5.97,CN,1649899806
Inuvik,68.3499,-133.7218,11.16,52,20,9.22,CA,1649899807
Plátanos,37.6667,21.6167,53.08,80,63,4.36,GR,1649899807
Kawalu,-7.3817,108.2082,82.27,68,72,2.44,ID,1649899808
Mason City,43.1536,-93.201,38.32,54,0,16.11,US,1649899808
Marawi,7.9986,124.2928,79.57,64,100,2.71,PH,1649899809
Mbanza-Ngungu,-5.25,14.8667,66.61,96,94,3.0,CD,1649899809
Pevek,69.7008,170.3133,8.22,81,100,2.86,RU,1649899809
Bhānpura,24.513,75.7469,87.08,22,0,11.52,IN,1649899810
Muros,42.7762,-9.0603,47.84,94,100,4.56,ES,1649899810
Sur,22.5667,59.5289,85.05,32,7,5.75,OM,1649899538
Turukhansk,65.8167,87.9833,32.2,100,100,6.8,RU,1649899811
Mocuba,-16.8392,36.9856,70.54,98,11,3.49,MZ,1649899698
Miraflores,19.2167,-98.8083,75.02,38,100,3.89,MX,1649899811
Salinas,36.6777,-121.6555,60.42,53,0,14.97,US,1649899796
Tonantins,-2.8731,-67.8022,74.08,98,98,1.63,BR,1649899812
Cockburn Town,21.4612,-71.1419,77.27,81,6,26.66,TC,1649899812
Teahupoo,-17.8333,-149.2667,73.36,74,38,20.0,PF,1649899813
Kushima,31.4583,131.2333,69.96,86,100,7.96,JP,1649899813
Kuchl,47.6265,13.1448,51.48,87,59,5.08,AT,1649899813
Acarí,-15.4311,-74.6158,69.3,76,8,2.84,PE,1649899814
Cumana,10.4635,-64.1775,77.88,82,70,17.34,VE,1649899814
Kosum Phisai,16.2486,103.0674,87.1,39,82,12.77,TH,1649899815
Luanda,-8.8368,13.2343,76.6,90,63,7.78,AO,1649899815
Mbalmayo,3.5167,11.5,68.0,99,100,3.83,CM,1649899815
Paphos,34.7667,32.4167,49.78,57,0,8.05,CY,1649899816
Derzhavīnsk,51.1,66.3167,49.35,60,10,7.0,KZ,1649899816
Dongli,23.5656,116.8194,75.18,64,20,8.95,CN,1649899816
Maryborough,-25.5333,152.7,75.11,67,44,10.47,AU,1649899816
Sāveh,35.0213,50.3566,64.38,17,94,4.27,IR,1649899817
Necochea,-38.5473,-58.7368,55.26,69,0,7.81,AR,1649899698
Zaraza,9.3503,-65.3245,82.22,61,54,8.21,VE,1649899817
Wewak,-3.5534,143.6268,85.82,69,66,7.31,PG,1649899818
Paita,-5.0892,-81.1144,69.62,77,45,16.35,PE,1649899818
Havøysund,70.9963,24.6622,30.43,83,68,8.66,NO,1649899818
Flin Flon,54.7682,-101.865,23.68,82,100,13.82,CA,1649899818
Balabac,7.9868,117.0645,83.82,70,62,10.98,PH,1649899819
Caluquembe,-13.7833,14.6833,59.02,95,100,2.98,AO,1649899819
Pedernales,18.0384,-71.744,79.41,70,6,10.45,DO,1649899820
Khovd,48.0056,91.6419,23.05,46,77,8.1,MN,1649899820
