,City,Lat,Lng,Max Temp,Humidity,Cloudiness,Wind Speed,Country,Date
0,Dunedin,-45.8742,170.5036,57.09,64,100,6.46,NZ,1649665687
1,Tautira,-17.7333,-149.15,81.46,73,3,15.93,PF,1649665687
2,Baruun-Urt,46.6806,113.2792,42.75,21,20,13.62,MN,1649665688
3,Bambanglipuro,-7.95,110.2833,83.88,73,91,10.29,ID,1649665688
4,Mwinilunga,-11.7358,24.4293,70.47,79,95,7.54,ZM,1649665688
5,Butaritari,3.0707,172.7902,80.53,74,73,3.58,KI,1649665689
6,Cabo San Lucas,22.8909,-109.9124,69.51,72,99,11.99,MX,1649665689
7,Coquimbo,-29.9533,-71.3436,51.53,93,0,4.61,CL,1649665689
8,Aklavik,68.2191,-135.0107,-10.01,97,100,2.8,CA,1649665690
9,Port Alfred,-33.5906,26.891,71.19,86,100,5.99,ZA,1649665690
10,Cherskiy,68.75,161.3,-7.71,92,98,4.5,RU,1649665690
11,Carnarvon,-24.8667,113.6333,77.07,53,0,14.97,AU,1649665691
12,Rikitea,-23.1203,-134.9692,78.78,75,0,19.13,PF,1649665691
13,Port Hardy,50.6996,-127.4199,44.6,75,40,6.91,CA,1649665692
14,Port-Cartier,50.0334,-66.8654,39.31,86,9,9.17,CA,1649665692
15,Oktyabr'skoye,43.0645,44.7417,69.94,43,1,8.95,RU,1649665692
16,Saint George,37.1041,-113.5841,51.64,23,0,9.22,US,1649665693
17,East London,-33.0153,27.9116,70.74,83,0,9.22,ZA,1649665693
18,Lavrentiya,65.5833,-171.0,15.94,95,100,1.12,RU,1649665693
19,Barrow,71.2906,-156.7887,8.62,85,100,18.41,US,1649665694
20,Tabou,4.423,-7.3528,81.64,82,82,5.19,CI,1649665694
21,Norman Wells,65.282,-126.8329,3.24,72,40,9.22,CA,1649665694
22,Vaini,-21.2,-175.2,78.96,83,20,11.5,TO,1649665695
23,Geraldton,-28.7667,114.6,64.81,77,40,16.11,AU,1649665695
24,Raja,8.4596,25.678,87.42,43,97,8.81,SS,1649665695
25,Yellowknife,62.456,-114.3525,10.92,67,100,11.5,CA,1649665697
26,Mataura,-46.1927,168.8643,63.48,54,100,8.1,NZ,1649665697
27,Krasnyy Chikoy,50.3643,108.7512,38.84,44,100,11.14,RU,1649665698
28,Hatillo,18.4863,-66.8254,75.06,91,34,1.99,PR,1649665698
29,Tuktoyaktuk,69.4541,-133.0374,-13.04,100,34,6.38,CA,1649665698
30,Punta Arenas,-53.15,-70.9167,44.71,81,100,4.61,CL,1649665698
31,Abonnema,4.7084,6.7931,84.49,69,48,3.78,NG,1649665699
32,Sinnamary,5.3833,-52.95,77.09,88,100,11.16,GF,1649665699
33,El Alto,-4.2714,-81.2147,71.28,73,100,11.03,PE,1649665699
34,Esim,4.8699,-2.2405,83.77,75,33,7.05,GH,1649665700
35,Bluff,-46.6,168.3333,63.81,68,100,18.21,NZ,1649665700
36,Kapaa,22.0752,-159.319,75.18,92,100,13.8,US,1649665700
37,Grindavik,63.8424,-22.4338,37.87,65,0,16.11,IS,1649665701
38,Ojinaga,29.5667,-104.4167,71.56,27,0,0.0,MX,1649665575
39,Ushuaia,-54.8,-68.3,40.66,87,100,5.75,AR,1649665408
40,Port Elizabeth,-33.918,25.5701,76.1,77,0,12.66,ZA,1649665701
41,Port Hawkesbury,45.6169,-61.3485,35.19,99,100,12.66,CA,1649665701
42,Pavlodar,52.3,76.95,51.6,17,0,17.9,KZ,1649665702
43,Loandjili,-4.7561,11.8578,84.31,74,40,6.91,CG,1649665702
44,Ponta do Sol,32.6667,-17.1,63.72,71,71,14.61,PT,1649665702
45,Nokaneng,-19.6667,22.2667,76.26,61,0,9.93,BW,1649665703
46,Provideniya,64.3833,-173.3,18.61,91,78,6.4,RU,1649665703
47,Ejido,8.5514,-71.2375,65.05,86,60,6.55,VE,1649665703
48,Tonantins,-2.8731,-67.8022,72.88,99,100,1.52,BR,1649665704
49,Busselton,-33.65,115.3333,70.36,45,60,5.59,AU,1649665704
50,Souillac,-20.5167,57.5167,80.98,78,75,14.97,MU,1649665704
51,Santa Rosa,14.3122,121.1114,89.58,60,100,8.95,PH,1649665705
52,Thompson,55.7435,-97.8558,23.16,86,40,0.0,CA,1649665630
53,Waipawa,-41.4122,175.5153,57.49,74,52,20.58,NZ,1649665443
54,Atuona,-9.8,-139.0333,79.02,79,11,18.54,PF,1649665622
55,Tuatapere,-46.1333,167.6833,54.86,85,98,7.81,NZ,1649665705
56,Gujar Khan,33.2558,73.3026,99.63,10,99,4.68,PK,1649665705
57,Longyearbyen,78.2186,15.6401,10.24,56,20,24.16,SJ,1649665706
58,Hermanus,-34.4187,19.2345,71.8,56,99,6.38,ZA,1649665706
59,Esperance,-33.8667,121.9,67.84,80,83,21.54,AU,1649665707
60,Chokurdakh,70.6333,147.9167,-4.76,97,97,4.72,RU,1649665707
61,Bernalillo,35.05,-106.6673,57.25,40,75,6.91,US,1649665619
62,Delaware,39.0004,-75.4999,45.93,78,0,4.61,US,1649665707
63,Caravelas,-17.7125,-39.2481,73.17,96,55,3.74,BR,1649665708
64,Fortuna,40.5982,-124.1573,45.66,94,100,16.11,US,1649665708
65,Avarua,-21.2078,-159.775,77.05,94,20,2.3,CK,1649665710
66,Chālūs,36.655,51.4204,65.66,52,0,4.61,IR,1649665711
67,Shelburne,44.0787,-80.2041,33.6,81,57,8.66,CA,1649665711
68,Saint-Philippe,-21.3585,55.7679,84.11,72,89,15.19,RE,1649665713
69,Chui,-33.6971,-53.4616,68.72,91,100,9.6,UY,1649665713
70,Hobart,-42.8794,147.3294,55.26,55,40,6.91,AU,1649665713
71,Albany,42.6001,-73.9662,35.06,73,3,7.72,US,1649665421
72,Touros,-5.1989,-35.4608,75.99,91,54,6.58,BR,1649665714
73,Codrington,-38.2667,141.9667,56.88,57,45,10.16,AU,1649665714
74,Musoma,-1.5,33.8,81.3,44,75,9.62,TZ,1649665714
75,Kahului,20.8947,-156.47,75.85,74,75,11.99,US,1649665715
76,Narsaq,60.9167,-46.05,30.42,59,89,5.5,GL,1649665715
77,Bontang,0.1333,117.5,83.59,79,100,7.29,ID,1649665715
78,Linxia Chengguanzhen,35.6003,103.2064,56.48,22,100,5.91,CN,1649665715
79,San Cristobal,7.7669,-72.225,69.26,79,100,1.1,VE,1649665716
80,Hluti,-27.2167,31.6167,62.51,96,98,3.62,SZ,1649665716
81,Cape Town,-33.9258,18.4232,78.12,52,0,2.3,ZA,1649665707
82,Airai,-8.9266,125.4092,70.54,58,30,2.64,TL,1649665717
83,Saldanha,-33.0117,17.9442,80.65,43,13,4.92,ZA,1649665717
84,New Norfolk,-42.7826,147.0587,54.9,49,87,1.99,AU,1649665717
85,Sitka,57.0531,-135.33,39.09,26,0,6.91,US,1649665718
86,Province of Brindisi,40.5833,17.6667,57.79,42,0,17.25,IT,1649665718
87,Xixiang,35.1628,112.865,93.94,20,100,6.49,CN,1649665718
88,Havre-St-Pierre,50.2334,-63.5986,37.76,70,75,6.91,CA,1649665719
89,Mbanza-Ngungu,-5.25,14.8667,71.1,93,100,3.13,CD,1649665720
90,Ulaangom,49.9811,92.0667,41.45,25,94,13.15,MN,1649665720
91,Apricena,41.7839,15.4437,55.49,57,5,2.06,IT,1649665721
92,George Town,5.4112,100.3354,88.95,76,20,9.22,MY,1649665721
93,Faya,18.3851,42.4509,77.11,19,0,10.67,SA,1649665721
94,Moreno,-8.1186,-35.0922,76.15,83,40,1.14,BR,1649665683
95,Carutapera,-1.195,-46.02,74.7,95,89,4.09,BR,1649665723
96,Aksarka,66.5606,67.7975,35.17,100,100,11.9,RU,1649665723
97,Saskylakh,71.9167,114.0833,-0.81,93,53,5.64,RU,1649665723
98,Margate,51.3813,1.3862,50.88,63,100,5.99,GB,1649665723
99,Ahmadpur East,29.1431,71.2598,109.44,7,100,10.94,PK,1649665724
100,Vanimo,-2.6741,141.3028,82.92,78,14,9.24,PG,1649665724
101,Bredasdorp,-34.5322,20.0403,71.53,58,14,5.46,ZA,1649665724
102,Ostër,50.9506,30.8823,45.39,66,100,14.0,UA,1649665725
103,Viedma,-40.8135,-62.9967,56.25,69,100,2.35,AR,1649665725
104,Laurel,39.0993,-76.8483,40.64,83,40,0.0,US,1649665672
105,Anzio,41.4853,12.6179,59.43,41,25,10.02,IT,1649665725
106,Lorengau,-2.0226,147.2712,82.63,79,99,11.81,PG,1649665726
107,Faro,37.0194,-7.9322,61.18,88,75,18.41,PT,1649665562
108,Hobyo,5.3505,48.5268,86.68,57,34,8.52,SO,1649665726
109,Diapaga,12.0708,1.7889,90.52,35,77,10.69,BF,1649665726
110,Gushikawa,26.3544,127.8686,78.03,84,75,10.36,JP,1649665727
111,Lūnāvāda,23.1333,73.6167,103.91,13,100,9.95,IN,1649665728
112,Nanortalik,60.1432,-45.2371,26.78,71,100,3.85,GL,1649665728
113,Fremont,37.5483,-121.9886,52.03,77,0,13.8,US,1649665660
114,Klaksvík,62.2266,-6.589,36.52,71,100,19.13,FO,1649665729
115,Marmora,44.4583,7.094,46.33,51,37,2.55,IT,1649665729
116,Zaozyornoye,45.1582,33.2787,51.17,93,100,9.95,UA,1649665729
117,Vila Velha,-20.3297,-40.2925,76.95,92,75,3.44,BR,1649665711
118,Kendari,-3.945,122.4989,88.07,54,8,4.97,ID,1649665609
119,Qaanaaq,77.484,-69.3632,-8.63,66,30,7.83,GL,1649665730
120,Yangi Marg`ilon,40.4272,71.7189,83.12,26,100,2.3,UZ,1649665730
121,Arraial do Cabo,-22.9661,-42.0278,74.55,79,10,3.02,BR,1649665730
122,Ostrovnoy,68.0531,39.5131,34.81,90,96,20.09,RU,1649665731
123,Kuala Sungai Baru,2.3594,102.0353,89.64,67,74,8.08,MY,1649665731
124,Guilin,25.2819,110.2864,87.91,36,0,6.71,CN,1649665732
125,Macapá,0.0389,-51.0664,76.98,100,75,2.3,BR,1649665733
126,Vila Franca do Campo,37.7167,-25.4333,55.81,70,93,19.19,PT,1649665733
127,Kruisfontein,-34.0033,24.7314,73.89,53,6,5.1,ZA,1649665733
128,Fairbanks,64.8378,-147.7164,25.3,78,100,4.61,US,1649665550
129,Bariloche,-41.1456,-71.3082,40.75,60,40,10.36,AR,1649665607
130,Hong Kong,22.2855,114.1577,84.96,72,2,5.99,HK,1649665735
131,Marsh Harbour,26.5412,-77.0636,68.29,58,0,10.98,BS,1649665735
132,Green River,41.5286,-109.4662,30.97,32,97,1.01,US,1649665735
133,Māngrol,21.1167,70.1167,89.08,47,100,11.52,IN,1649665736
134,Talcahuano,-36.7167,-73.1167,42.48,100,20,6.91,CL,1649665515
135,Hithadhoo,-0.6,73.0833,84.2,64,90,12.77,MV,1649665736
136,Mayumba,-3.432,10.6554,81.09,79,100,2.93,GA,1649665736
137,Letchworth,51.9794,-0.2284,51.13,70,100,7.0,GB,1649665737
138,Avera,33.194,-82.5271,50.92,68,7,7.18,US,1649665737
139,Tarsus,36.9188,34.8784,71.98,61,0,5.91,TR,1649665737
140,Kalmunai,7.4167,81.8167,85.8,67,96,7.09,LK,1649665737
141,Jalu,29.0331,21.5482,70.95,32,0,14.67,LY,1649665738
142,Makakilo City,21.3469,-158.0858,74.01,73,0,12.66,US,1649665738
143,Dikson,73.5069,80.5464,7.07,90,62,6.31,RU,1649665738
144,Mason City,43.1536,-93.201,39.45,78,0,18.41,US,1649665739
145,Ilulissat,69.2167,-51.1,21.22,68,100,2.3,GL,1649665739
146,Sivaki,52.6333,126.75,36.14,58,100,6.22,RU,1649665739
147,‘Ewa Beach,21.3156,-158.0072,75.43,74,0,12.66,US,1649665740
148,Yumen,40.2833,97.2,54.86,22,100,11.3,CN,1649665740
149,Neftçala,39.3742,49.2472,62.6,68,0,12.71,AZ,1649665740
150,Kānker,20.2719,81.4931,105.84,14,54,7.47,IN,1649665740
151,Nikolskoye,59.7035,30.7861,45.88,72,39,9.86,RU,1649665741
152,Maneromango,-7.1988,38.7848,84.25,55,84,7.38,TZ,1649665741
153,Muros,42.7762,-9.0603,58.68,90,89,16.55,ES,1649665741
154,Laas,46.6166,10.7002,43.68,47,30,2.26,IT,1649665742
155,Jamestown,42.097,-79.2353,31.71,65,0,0.0,US,1649665632
156,Korla,41.7597,86.1469,67.78,19,97,5.28,CN,1649665745
157,Sāyla,22.55,71.4667,101.21,10,100,12.3,IN,1649665745
158,Bengkulu,-3.8004,102.2655,84.97,65,36,7.52,ID,1649665746
159,Upernavik,72.7868,-56.1549,6.69,95,100,5.3,GL,1649665746
160,Baykal'sk,51.5058,104.1469,33.67,79,100,1.77,RU,1649665746
161,Inírida,3.8653,-67.9239,73.83,97,100,2.39,CO,1649665746
162,Chipinge,-20.1883,32.6236,67.15,80,88,3.13,ZW,1649665747
163,Padang,-0.9492,100.3543,84.25,73,90,6.04,ID,1649665747
164,Tigil',57.8,158.6667,22.82,87,100,13.76,RU,1649665747
165,Zhongshu,24.5167,103.7667,75.97,37,89,9.86,CN,1649665748
166,Hambantota,6.1241,81.1185,89.94,70,40,9.22,LK,1649665748
167,Lebu,-37.6167,-73.65,45.73,87,1,3.29,CL,1649665748
168,Faanui,-16.4833,-151.75,82.33,67,17,18.39,PF,1649665749
169,Ola,59.5833,151.2833,20.68,69,1,6.46,RU,1649665749
170,Mahébourg,-20.4081,57.7,81.25,78,75,14.97,MU,1649665749
171,Mareeba,-17.0,145.4333,78.44,80,93,5.14,AU,1649665750
172,Oranjemund,-28.55,16.4333,80.06,37,0,15.77,NA,1649665750
173,Novokayakent,42.3937,47.9861,55.85,74,47,5.86,RU,1649665750
174,Puerto Ayora,-0.7393,-90.3518,76.55,95,98,4.0,EC,1649665751
175,Vostok,46.4856,135.8833,38.12,99,100,1.59,RU,1649665751
176,Shimoda,34.6667,138.95,68.36,79,100,9.24,JP,1649665751
177,Bad Salzungen,50.8167,10.2333,48.74,63,98,3.0,DE,1649665752
178,Broome,42.2506,-75.833,33.85,75,0,6.91,US,1649665752
179,Nianzishan,47.5167,122.8833,53.04,21,100,9.98,CN,1649665752
180,Tiksi,71.6872,128.8694,0.0,94,52,4.92,RU,1649665753
181,Turukhansk,65.8167,87.9833,21.78,74,100,6.06,RU,1649665753
182,Agadez,19.75,10.25,89.51,6,1,10.98,NE,1649665753
183,Harper,4.375,-7.7169,81.05,83,30,4.99,LR,1649665754
184,Ratnagiri,16.9833,73.3,89.73,52,99,13.06,IN,1649665754
185,Luena,-11.7833,19.9167,71.78,83,40,4.61,AO,1649665755
186,Port Augusta,-32.5,137.7667,77.86,47,6,15.79,AU,1649665755
187,Carndonagh,55.25,-7.2667,49.62,77,100,18.9,IE,1649665755
188,Senanga,-16.1167,23.2667,74.12,69,93,7.11,ZM,1649665756
189,Karratha,-20.7377,116.8463,93.97,27,0,17.74,AU,1649665756
190,Terrace,54.5163,-128.6035,35.51,80,20,8.05,CA,1649665756
191,Mogadishu,2.0371,45.3438,85.24,67,79,9.06,SO,1649665757
192,Ahipara,-35.1667,173.1667,62.91,85,100,7.87,NZ,1649665757
193,Mar del Plata,-38.0023,-57.5575,65.08,97,0,11.99,AR,1649665575
194,Portland,45.5234,-122.6762,40.28,93,100,10.0,US,1649665478
195,Turka,49.1541,23.0297,39.79,66,92,8.34,UA,1649665758
196,Lar,26.2039,83.9717,104.29,16,0,6.55,IN,1649665758
197,Teknāf,20.8624,92.3058,87.96,59,2,11.1,BD,1649665758
198,Khatanga,71.9667,102.5,10.2,86,100,6.46,RU,1649665759
199,Burnie,-41.0667,145.9167,53.92,57,3,11.25,AU,1649665759
200,Ilmajoki,62.7333,22.5667,36.99,58,98,4.03,FI,1649665759
201,Husavik,66.0449,-17.3389,31.24,82,100,2.93,IS,1649665760
202,Saint-Joseph,-21.3667,55.6167,83.1,69,46,16.87,RE,1649665760
203,Derzhavīnsk,51.1,66.3167,48.85,58,100,21.25,KZ,1649665760
204,São Filipe,14.8961,-24.4956,69.85,79,48,13.98,CV,1649665761
205,Nizhniy Kuranakh,58.8353,125.4869,29.91,71,100,6.64,RU,1649665761
206,Örnsköldsvik,63.2909,18.7153,32.95,100,75,5.75,SE,1649665761
207,Ancud,-41.8697,-73.8203,50.23,91,100,7.09,CL,1649665762
208,Celestún,20.8667,-90.4,72.25,72,93,16.49,MX,1649665762
209,Santoña,43.4439,-3.4576,67.93,73,100,10.22,ES,1649665762
210,Taoudenni,22.6783,-3.9836,79.25,7,37,7.31,ML,1649665762
211,Cockburn Town,21.4612,-71.1419,76.32,82,44,20.07,TC,1649665763
212,Sedalia,38.7045,-93.2283,55.44,50,40,4.61,US,1649665763
213,Kamakwie,9.5,-12.2333,78.19,77,100,4.38,SL,1649665763
214,High Level,58.5169,-117.136,14.11,73,100,14.97,CA,1649665519
215,Sur,22.5667,59.5289,96.93,30,0,7.61,OM,1649665764
216,Utiel,39.5667,-1.2,50.38,73,96,8.43,ES,1649665764
217,Karanganom,-7.6489,110.625,84.81,67,57,3.04,ID,1649665765
218,Gijang,35.2442,129.2139,67.73,81,15,12.33,KR,1649665765
219,Zaranj,30.9667,61.8833,93.16,9,0,14.38,AF,1649665765
220,Bambous Virieux,-20.3428,57.7575,81.21,78,75,14.97,MU,1649665765
221,Labuhan,-6.8844,112.2051,86.45,61,27,6.2,ID,1649665766
222,Morondava,-20.2833,44.2833,87.08,54,58,6.55,MG,1649665766
223,Santa Cruz de Barahona,18.2085,-71.1008,75.18,81,57,3.91,DO,1649665766
224,Hasaki,35.7333,140.8333,72.28,80,84,17.29,JP,1649665767
225,Frolovo,49.7713,43.6622,65.39,54,100,17.0,RU,1649665767
226,Asău,46.4333,26.4,44.96,64,100,11.34,RO,1649665767
227,Sørland,67.667,12.6934,40.01,74,0,14.94,NO,1649665768
228,Whitehorse,60.7161,-135.0538,19.02,62,100,10.36,CA,1649665768
229,Diofior,14.1833,-16.6667,69.91,62,15,11.21,SN,1649665768
230,Sobolevo,54.4299,31.8996,43.54,67,100,7.02,RU,1649665768
231,Mae Hong Son,19.3003,97.9685,98.74,32,20,3.44,TH,1649665769
232,Deputatsky,69.3,139.9,3.7,95,77,1.97,RU,1649665769
233,Hilo,19.7297,-155.09,72.25,89,100,4.61,US,1649665769
234,Khabez,44.0434,41.772,70.88,28,5,1.01,RU,1649665770
235,College,64.8569,-147.8028,25.29,78,75,4.61,US,1649665747
236,Leningradskiy,69.3833,178.4167,-4.36,99,100,6.78,RU,1649665770
237,Nemuro,43.3236,145.575,38.19,97,100,9.17,JP,1649665770
238,Amapá,1.0,-52.0,70.65,100,100,1.81,BR,1649665771
239,Lubango,-14.9172,13.4925,70.03,61,77,5.12,AO,1649665522
240,Passo de Camaragibe,-9.2368,-35.4901,72.95,79,80,1.05,BR,1649665771
241,St. George's,12.0564,-61.7485,78.55,81,26,14.72,GD,1649665771
242,Borogontsy,62.6683,131.1683,27.18,85,100,6.71,RU,1649665772
243,Dudinka,69.4058,86.1778,6.62,85,6,6.67,RU,1649665772
244,Torbay,47.6666,-52.7314,32.76,96,100,6.91,CA,1649665772
245,Amahai,-3.3333,128.9167,80.65,80,100,6.91,ID,1649665773
246,Pingdingshan,33.7385,113.3012,91.72,31,27,15.41,CN,1649665773
247,Lárdos,36.0942,28.0157,62.42,58,37,26.11,GR,1649665773
248,Panama City,8.9936,-79.5197,79.29,81,66,4.83,PA,1649665492
249,Castro,-24.7911,-50.0119,60.35,93,100,5.57,BR,1649665774
250,Iqaluit,63.7506,-68.5145,13.73,72,40,8.05,CA,1649665774
251,Salalah,17.0151,54.0924,87.89,66,0,12.66,OM,1649665545
252,Sisimiut,66.9395,-53.6735,25.25,66,100,10.22,GL,1649665774
253,Ribeira Grande,38.5167,-28.7,57.6,77,75,18.41,PT,1649665775
254,Kumhāri,21.2667,81.5167,102.54,11,81,5.48,IN,1649665775
255,Comodoro Rivadavia,-45.8667,-67.5,51.66,62,0,8.05,AR,1649665775
256,San Lorenzo,-25.3333,-57.5333,70.74,88,100,14.0,PY,1649665776
257,Zdvinsk,54.7021,78.661,42.46,45,31,7.99,RU,1649665776
258,Blackwater,-23.5833,148.8833,84.43,35,30,7.99,AU,1649665776
259,Dwārka,22.2394,68.9678,86.94,56,100,11.48,IN,1649665776
260,Ustyuzhna,58.8394,36.4321,43.57,72,100,3.18,RU,1649665777
261,Arti,56.4234,58.5328,51.22,77,13,10.85,RU,1649665778
262,Peniche,39.3558,-9.3811,61.11,86,100,19.17,PT,1649665778
263,Balotra,25.8333,72.2333,102.7,10,66,14.0,IN,1649665779
264,Orán,-23.1322,-64.326,73.42,94,69,2.21,AR,1649665779
265,Zihuatanejo,17.6333,-101.55,76.86,74,92,6.24,MX,1649665780
266,Morehead,37.2711,-87.1764,64.99,61,75,5.75,US,1649665780
267,Nanzhang,31.7765,111.8386,92.16,30,25,13.24,CN,1649665780
268,Naryan-Mar,67.6713,53.087,34.81,100,100,6.31,RU,1649665781
269,Adrar,20.5022,-10.0711,76.89,8,5,9.31,MR,1649665781
270,Tra Vinh,9.9347,106.3453,86.92,61,87,7.18,VN,1649665781
271,Stornoway,58.2093,-6.3865,46.92,77,20,11.5,GB,1649665781
272,Vila,42.0304,-8.1588,46.71,89,93,5.93,PT,1649665782
273,Ambon City,-3.6954,128.1814,87.94,66,40,6.91,ID,1649665782
274,Garoowe,8.4054,48.4845,88.0,35,2,6.55,SO,1649665782
275,Yerbogachën,61.2767,108.0108,32.85,67,100,5.44,RU,1649665783
276,Ekhabi,53.5102,142.9671,28.85,83,100,13.53,RU,1649665783
277,Alice Springs,-23.7,133.8833,92.75,21,12,12.66,AU,1649665784
278,Lowestoft,52.4752,1.7516,53.46,83,100,14.23,GB,1649665784
279,Stokmarknes,68.5646,14.9108,40.96,60,0,0.0,NO,1649665785
280,Kyren,51.6828,102.1408,39.38,37,99,2.98,RU,1649665785
281,Oktyabr'skiy,54.4815,53.471,44.62,96,77,4.03,RU,1649665785
282,Varangaon,21.0167,75.9,104.27,13,100,7.29,IN,1649665786
283,Hofn,64.2539,-15.2082,35.62,64,100,10.36,IS,1649665786
284,Port Blair,11.6667,92.75,87.84,66,20,4.61,IN,1649665786
285,Isangel,-19.55,169.2667,80.31,75,8,8.25,VU,1649665787
286,Natal,-5.795,-35.2094,77.22,94,40,4.61,BR,1649665787
287,Januária,-15.4833,-44.3667,70.83,79,37,1.7,BR,1649665787
288,Sabha,27.0377,14.4283,70.25,18,0,20.07,LY,1649665788
289,Tromsø,69.6496,18.957,39.38,75,75,11.5,NO,1649665788
290,Sola,-13.8833,167.55,81.99,74,23,3.76,VU,1649665788
291,Yeppoon,-23.1333,150.7333,78.58,75,1,11.12,AU,1649665788
292,Maragogi,-9.0122,-35.2225,77.56,76,70,2.86,BR,1649665789
293,Olavarría,-36.8927,-60.3225,58.01,99,100,5.1,AR,1649665789
294,Manbij,36.5281,37.9549,71.64,37,10,3.02,SY,1649665789
295,San Policarpo,12.1791,125.5072,79.72,89,99,12.5,PH,1649665790
296,Half Moon Bay,37.4636,-122.4286,51.66,80,100,31.07,US,1649665790
297,Nizhniy Ingash,56.2,96.53,32.0,78,100,11.48,RU,1649665790
298,Tasiilaq,65.6145,-37.6368,12.36,81,98,2.57,GL,1649665791
299,Antofagasta,-23.65,-70.4,58.28,83,45,3.96,CL,1649665564
300,Port Said,31.2565,32.2841,64.8,68,0,7.76,EG,1649665791
301,Diamantino,-14.4086,-56.4461,71.08,87,40,4.0,BR,1649665791
302,Matara,5.9485,80.5353,86.34,66,100,12.77,LK,1649665792
303,Fukuechō,32.6881,128.8419,64.76,94,75,8.05,JP,1649665792
304,Puerto Carreño,6.189,-67.4859,79.36,79,100,5.46,CO,1649665792
305,Nikitinskiy,54.5845,86.0115,34.02,50,9,6.53,RU,1649665792
306,Pevek,69.7008,170.3133,-19.57,100,53,6.15,RU,1649665793
307,Baft,29.234,56.6057,70.2,5,0,10.33,IR,1649665793
308,Impfondo,1.6381,18.0667,74.12,83,100,3.31,CG,1649665793
309,Xam Nua,20.4197,104.0439,83.68,45,63,1.63,LA,1649665794
310,Brae,60.3964,-1.353,39.07,62,100,7.23,GB,1649665794
311,Westport,41.1415,-73.3579,41.56,69,0,5.75,US,1649665550
312,Anan,33.9167,134.65,64.18,79,100,13.85,JP,1649665794
313,Murgab,37.4966,61.9714,69.67,52,75,13.8,TM,1649665795
314,Cap-aux-Meules,47.3821,-61.8597,33.82,86,100,21.85,CA,1649665795
315,San Andrés,12.5847,-81.7006,78.82,83,75,11.5,CO,1649665795
316,Hirara,24.8,125.2833,79.07,78,40,8.05,JP,1649665796
317,Amberley,39.2048,-84.428,58.95,53,0,8.05,US,1649665796
318,Laï,9.3952,16.2989,92.91,33,61,7.09,TD,1649665796
319,Guerrero Negro,27.9769,-114.0611,58.55,85,1,8.97,MX,1649665595
320,Saint Paul Harbor,57.79,-152.4072,29.71,69,0,6.91,US,1649665797
321,Umm Hājar,13.2954,19.6966,93.16,31,53,4.41,TD,1649665797
322,Bathsheba,13.2167,-59.5167,79.41,78,75,16.11,BB,1649665797
323,Klembivka,48.3904,28.4109,46.53,63,100,17.6,UA,1649665798
324,Arlit,18.7369,7.3853,94.75,8,0,10.56,NE,1649665798
325,Hirado,33.3597,129.5531,69.39,84,84,10.02,JP,1649665798
326,Belyy Yar,53.6039,91.3903,37.85,34,0,8.95,RU,1649665798
327,Lagoa,39.05,-27.9833,57.25,75,66,26.8,PT,1649665799
328,Shitanjing,39.2342,106.3439,48.88,18,100,12.62,CN,1649665799
329,Lüderitz,-26.6481,15.1594,79.79,41,5,12.03,NA,1649665800
330,Werda,-25.2667,23.2833,66.07,77,92,9.28,BW,1649665801
331,Balaipungut,1.05,101.2833,83.21,82,100,2.59,ID,1649665801
332,Bethel,41.3712,-73.414,39.49,74,0,1.99,US,1649665802
333,Mâncio Lima,-7.6142,-72.8958,69.33,99,96,2.13,BR,1649665802
334,Atar,20.5169,-13.0499,81.21,9,14,8.08,MR,1649665803
335,Malatya Province,38.5,38.0,62.65,39,0,6.91,TR,1649665803
336,Haines Junction,60.7522,-137.5108,26.55,54,100,4.61,CA,1649665804
337,Matamoros,25.5333,-103.25,69.28,35,91,12.97,MX,1649665514
338,George Town,5.4112,100.3354,88.95,76,20,9.22,MY,1649665721
339,Iskateley,67.6803,53.1512,34.75,100,100,6.17,RU,1649665805
340,Road Town,18.4167,-64.6167,75.99,76,31,10.76,VG,1649665805
341,Sarangani,5.4033,125.4636,81.3,83,73,21.07,PH,1649665806
342,Port Shepstone,-30.7414,30.455,69.26,88,100,22.01,ZA,1649665806
343,Severo-Yeniseyskiy,60.3725,93.0408,25.41,75,100,7.87,RU,1649665807
344,Pacific Grove,36.6177,-121.9166,50.43,84,31,11.99,US,1649665807
345,Doctor Arroyo,23.6667,-100.1833,59.41,59,1,1.39,MX,1649665807
346,‘Āhuimanu,21.4447,-157.8378,75.2,79,75,12.66,US,1649665808
347,Biltine,14.5333,20.9167,98.33,6,14,7.52,TD,1649665808
348,Tezu,27.9167,96.1667,71.2,84,100,0.58,IN,1649665809
349,Itarema,-2.9248,-39.9167,75.58,91,52,2.57,BR,1649665809
350,Baykit,61.67,96.37,32.85,75,100,6.98,RU,1649665809
351,Khāsh,28.2211,61.2158,85.84,7,0,5.01,IR,1649665810
352,Zaporizhia,47.8167,35.1833,61.81,59,100,8.37,UA,1649665810
353,Scottsbluff,41.8666,-103.6672,25.03,80,0,5.75,US,1649665810
354,Kieta,-6.2167,155.6333,80.44,80,29,1.1,PG,1649665811
355,Tarsus,36.9188,34.8784,71.98,54,0,8.84,TR,1649665811
356,North Bend,43.4065,-124.2243,48.85,95,100,19.57,US,1649665812
357,Ulaanbaatar,47.9077,106.8832,33.93,25,75,15.66,MN,1649665519
358,Kulhudhuffushi,6.6221,73.07,84.79,72,58,10.87,MV,1649665812
359,Te Anau,-45.4167,167.7167,54.09,93,100,6.38,NZ,1649665812
360,Rafrāf,37.1904,10.1837,59.32,55,90,18.77,TN,1649665813
361,Alofi,-19.0595,-169.9187,76.89,94,75,1.14,NU,1649665813
362,Chapais,49.7834,-74.8492,28.18,100,97,2.33,CA,1649665517
363,Aykhal,66.0,111.5,24.8,79,100,5.03,RU,1649665814
364,Okhotsk,59.3833,143.3,21.02,82,85,4.5,RU,1649665814
365,Zarubino,42.63,131.0922,41.95,85,100,3.6,RU,1649665814
366,Olafsvik,64.8945,-23.7142,35.04,81,8,18.3,IS,1649665816
367,Mokrousovo,55.8103,66.7653,50.68,49,78,16.2,RU,1649665816
368,Chimbote,-9.0853,-78.5783,65.84,94,98,6.17,PE,1649665817
369,Ust-Tsilma,65.441,52.1498,37.71,100,100,4.59,RU,1649665817
370,Boulder,40.0833,-105.3505,31.73,40,0,5.99,US,1649665817
371,Srednekolymsk,67.45,153.6833,0.88,94,99,6.15,RU,1649665818
372,Syamzha,60.0158,41.0614,42.98,82,100,1.9,RU,1649665818
373,Río Cuarto,-33.1307,-64.3499,58.68,90,100,13.56,AR,1649665818
374,Kaili,-3.4626,120.2147,73.2,87,49,1.77,ID,1649665819
375,Murray,40.6669,-111.888,44.31,32,40,4.61,US,1649665819
376,Constitución,-35.3333,-72.4167,46.02,82,0,6.85,CL,1649665819
377,Port-Gentil,-0.7193,8.7815,84.16,79,40,9.22,GA,1649665820
378,Krasnoarmiys'k,48.282,37.1758,66.54,49,99,8.34,UA,1649665820
379,Sydney,-33.8679,151.2073,72.72,82,75,21.85,AU,1649665362
380,Bereda,43.2686,-7.5406,54.14,100,100,3.42,ES,1649665821
381,Pervoye Maya,56.164,44.7196,58.46,70,99,11.07,RU,1649665821
382,Pervomays'k,48.0443,30.8507,45.7,67,100,22.62,UA,1649665821
383,Naples,40.8333,14.25,58.12,39,0,5.75,IT,1649665822
384,Ketchikan,55.3422,-131.6461,42.78,70,0,4.61,US,1649665822
385,Kavaratti,10.5669,72.642,83.91,72,71,11.63,IN,1649665822
386,Dandong,40.1292,124.3947,60.96,75,45,11.36,CN,1649665823
387,Boguchany,58.3814,97.4531,36.3,73,100,8.72,RU,1649665823
388,Varnavino,57.4035,45.0916,51.87,83,100,7.92,RU,1649665823
389,Cidreira,-30.1811,-50.2056,70.12,90,100,14.72,BR,1649665823
390,Meulaboh,4.1363,96.1285,81.9,78,97,4.7,ID,1649665824
391,Champerico,14.3,-91.9167,80.64,76,57,6.78,GT,1649665824
392,Bilibino,68.0546,166.4372,-16.55,100,100,2.59,RU,1649665825
393,Campbell River,50.0163,-125.2446,38.73,83,100,6.22,CA,1649665803
394,Warmbad,-28.45,18.7333,73.96,40,0,11.41,NA,1649665825
395,Iquique,-20.2208,-70.1431,64.44,76,42,2.51,CL,1649665825
396,Sibolga,1.7427,98.7792,76.3,91,100,3.49,ID,1649665826
397,Pangnirtung,66.1451,-65.7125,16.34,84,100,5.48,CA,1649665826
398,Narasannapeta,18.4167,84.05,93.81,49,29,17.94,IN,1649665673
399,Nisibis,37.0778,41.2178,76.59,23,100,15.55,TR,1649665826
400,São João da Barra,-21.6403,-41.0511,73.47,86,64,6.51,BR,1649665827
401,Ulladulla,-35.35,150.4667,66.78,94,100,10.56,AU,1649665827
402,Traverse City,44.7631,-85.6206,49.73,61,100,8.05,US,1649665533
403,Mitú,1.1983,-70.1733,72.0,97,100,1.7,CO,1649665827
404,Kalabo,-14.97,22.6814,75.45,66,100,6.67,ZM,1649665828
405,Porbandar,21.6422,69.6093,91.38,52,20,9.22,IN,1649665627
406,Velyka Mykhaylivka,47.0794,29.8514,48.54,55,100,23.35,UA,1649665828
407,Altay,47.8667,88.1167,47.59,37,0,3.04,CN,1649665829
408,Vryheid,-27.7695,30.7917,56.53,96,100,2.42,ZA,1649665829
409,Fatick,14.3581,-16.5858,75.69,46,15,12.12,SN,1649665829
410,Soyo,-6.1349,12.3689,82.8,72,100,2.48,AO,1649665829
411,Luangwa,-15.6167,30.4167,80.58,59,92,7.87,ZM,1649665830
412,Amarante do Maranhão,-5.5667,-46.7422,70.16,98,100,1.68,BR,1649665830
413,Hīt,33.6416,42.8251,90.95,9,64,15.32,IQ,1649665830
414,Yalova,40.655,29.2769,45.54,90,100,15.08,TR,1649665831
415,Vanavara,60.34,102.2797,34.56,58,58,4.5,RU,1649665831
416,Fort Nelson,58.8053,-122.7002,15.39,79,100,10.36,CA,1649665831
417,Prieska,-29.6641,22.7474,66.58,58,22,8.46,ZA,1649665832
418,Jala,21.0833,-104.4333,60.37,70,0,2.66,MX,1649665832
419,Finschhafen,-6.6024,147.8681,81.43,78,43,2.64,PG,1649665832
420,Bud,39.447,-86.1758,63.36,62,100,15.99,US,1649665832
421,Conceição do Araguaia,-8.2578,-49.2647,71.82,98,99,4.05,BR,1649665833
422,Namatanai,-3.6667,152.4333,80.82,77,100,7.09,PG,1649665833
423,Caluquembe,-13.7833,14.6833,69.94,72,56,7.87,AO,1649665833
424,Cayenne,4.9333,-52.3333,80.1,1,75,5.01,GF,1649665834
425,Mulegé,26.8833,-111.9833,64.8,55,0,3.76,MX,1649665834
426,Coyhaique,-45.5752,-72.0662,51.75,66,75,4.61,CL,1649665835
427,Sagarejo,41.734,45.3315,66.63,39,10,5.08,GE,1649665836
428,Verkhnevilyuysk,63.4453,120.3167,28.87,78,100,3.58,RU,1649665836
429,Tieli,46.95,128.05,50.92,39,100,8.61,CN,1649665836
430,Wanning,18.8003,110.3967,80.35,69,7,9.17,CN,1649665837
431,Kavieng,-2.5744,150.7967,82.63,71,6,10.98,PG,1649665837
432,Kuril'sk,45.2333,147.8833,33.39,94,90,10.18,RU,1649665837
433,Kinna,57.5073,12.6946,50.74,45,6,7.72,SE,1649665838
434,Concordia,-31.393,-58.0209,66.78,100,80,1.99,AR,1649665641
435,Abu Dhabi,24.4667,54.3667,93.31,36,0,3.44,AE,1649665812
436,Alekseyevka,50.6309,38.6903,65.1,46,100,14.85,RU,1649665838
437,Piranhas,-16.4269,-51.8222,71.65,78,6,3.0,BR,1649665838
438,Balabac,7.9868,117.0645,81.5,75,100,13.13,PH,1649665839
439,Mackenzie,55.2999,-123.1698,23.22,80,0,0.0,CA,1649665803
440,Leh,34.1667,77.5833,46.17,37,63,2.1,IN,1649665839
441,Gouré,13.9835,10.2704,96.49,6,10,3.47,NE,1649665839
442,Evensk,61.95,159.2333,6.89,76,46,11.56,RU,1649665840
443,Marinette,45.1,-87.6307,46.85,65,40,11.5,US,1649665840
444,Hamilton,39.1834,-84.5333,60.26,54,0,10.36,US,1649665840
445,Rodolfo Sánchez Taboada,31.7167,-116.5667,60.1,81,50,5.01,MX,1649665840
446,Channel-Port aux Basques,47.5702,-59.1367,34.75,85,100,14.72,CA,1649665841
447,Batticaloa,7.7102,81.6924,84.81,67,97,7.11,LK,1649665841
448,Dingle,10.9995,122.6711,74.82,93,100,6.82,PH,1649665841
449,Asmara,15.3333,38.9333,74.73,23,1,7.31,ER,1649665842
450,Ürümqi,43.801,87.6005,63.55,20,0,8.95,CN,1649665842
451,Pochutla,15.7432,-96.4661,76.82,68,7,3.8,MX,1649665842
452,Quatre Cocos,-20.2078,57.7625,81.09,70,10,19.06,MU,1649665842
453,Kununurra,-15.7667,128.7333,98.58,22,99,8.05,AU,1649665843
454,Bograd,54.2344,90.8328,36.19,31,69,10.33,RU,1649665843
455,Turaif,31.6725,38.6637,80.85,21,2,6.91,SA,1649665843
456,Kaeo,-35.1,173.7833,66.33,85,100,10.71,NZ,1649665844
457,Quelimane,-17.8786,36.8883,80.55,83,75,5.75,MZ,1649665844
458,Altamont,42.2068,-121.7372,33.78,92,100,10.36,US,1649665844
459,Tiarei,-17.5333,-149.3333,78.82,74,3,15.28,PF,1649665845
460,Kaitangata,-46.2817,169.8464,56.3,64,100,5.37,NZ,1649665845
461,Apeldoorn,52.21,5.9694,52.3,60,100,4.61,NL,1649665845
462,Vao,-22.6667,167.4833,77.05,80,100,17.02,NC,1649665847
463,Pleshanovo,52.8333,53.4833,56.61,64,5,9.55,RU,1649665847
464,Boda,4.3189,17.4695,75.88,73,99,6.55,CF,1649665847
465,Dilla,6.41,38.31,80.53,42,67,5.3,ET,1649665848
466,Yong’an,39.6957,113.6871,50.07,37,100,10.92,CN,1649665848
467,Omsukchan,62.5333,155.8,-11.29,100,88,4.43,RU,1649665848
468,Poum,-20.2333,164.0167,79.03,77,88,8.14,NC,1649665849
469,Hoquiam,46.9809,-123.8893,37.38,91,100,5.75,US,1649665849
470,Butembo,0.15,29.2833,64.99,81,100,0.78,CD,1649665849
471,Marzuq,14.4,46.4667,89.87,13,0,15.79,YE,1649665850
472,Anchorage,61.2181,-149.9003,30.92,67,0,1.99,US,1649665629
473,Port Lincoln,-34.7333,135.8667,63.05,69,99,17.9,AU,1649665850
474,Maniitsoq,65.4167,-52.9,25.88,75,100,8.12,GL,1649665850
475,Henties Bay,-22.116,14.2845,67.14,65,0,5.68,NA,1649665851
476,Berlevåg,70.8578,29.0864,33.6,87,100,7.61,NO,1649665851
477,Santa Fe,-31.6333,-60.7,64.99,96,100,4.0,AR,1649665811
478,Okha,53.5739,142.9478,27.99,87,100,13.04,RU,1649665851
479,Sovetskaya,44.7769,41.1722,71.89,42,5,9.1,RU,1649665852
480,Tõrva,58.0028,25.935,41.95,55,7,9.42,EE,1649665852
481,Richards Bay,-28.783,32.0377,67.35,98,100,3.24,ZA,1649665852
482,Fuzhou,26.0614,119.3061,75.09,47,3,5.48,CN,1649665806
483,Lata,40.1629,-8.3327,58.82,93,100,5.79,PT,1649665853
484,San Patricio,28.017,-97.5169,73.89,85,100,18.59,US,1649665853
485,Sooke,48.3746,-123.7276,38.77,94,97,16.11,CA,1649665853
486,Ossora,59.2353,163.0719,21.29,84,100,8.41,RU,1649665854
487,Manggar,-2.8833,108.2667,84.0,70,58,3.15,ID,1649665854
488,Chara,56.9064,118.2631,25.47,76,100,1.66,RU,1649665855
489,Teahupoo,-17.8333,-149.2667,73.36,75,12,15.88,PF,1649665856
490,Mongo,12.1844,18.693,96.21,29,56,5.3,TD,1649665856
491,Belmonte,-15.8631,-38.8828,77.07,80,100,5.08,BR,1649665857
492,Kulykiv,50.3142,24.8176,44.19,55,33,10.42,UA,1649665857
493,Salinópolis,-0.6136,-47.3561,76.08,90,99,3.18,BR,1649665857
494,Forsytheganj,52.6333,29.7333,46.56,51,100,11.25,BY,1649665857
495,Havelock,34.8791,-76.9013,59.95,87,0,0.0,US,1649665858
496,Ca Mau,9.1769,105.15,83.75,70,99,5.19,VN,1649665859
497,Pyryatyn,50.2445,32.5107,40.71,85,100,16.51,UA,1649665859
498,Mandan,46.8267,-100.8896,37.38,91,100,12.66,US,1649665715
499,Pareora,-44.4871,171.2132,54.18,97,100,5.93,NZ,1649665860
500,Paamiut,61.994,-49.6678,25.63,69,100,8.81,GL,1649665860
501,Ouallam,14.3188,2.0866,99.59,21,25,12.26,NE,1649665860
502,Weligama,5.9667,80.4167,85.57,67,100,11.48,LK,1649665861
503,Illkirch-Graffenstaden,48.5289,7.7152,53.91,60,0,5.75,FR,1649665600
504,Shuangyang,43.5242,125.6736,52.03,81,100,9.95,CN,1649665861
505,Ust'-Omchug,61.15,149.6333,-5.01,91,10,3.53,RU,1649665862
506,Agirish,61.9247,63.0231,41.0,89,100,9.51,RU,1649665862
507,Severo-Kuril'sk,50.6789,156.125,29.5,80,69,15.35,RU,1649665863
508,Saint-Pierre,-21.3393,55.4781,84.18,81,75,20.71,RE,1649665863
509,Olinda,-8.0089,-34.8553,76.73,83,40,1.14,BR,1649665864
510,Rabo de Peixe,37.8,-25.5833,54.91,71,20,14.97,PT,1649665864
511,Wamba,8.9333,8.6,92.26,40,32,3.87,NG,1649665864
512,Alice Town,25.7167,-79.3,70.39,62,0,14.16,BS,1649665865
513,Irará,-12.05,-38.7667,68.74,96,0,1.34,BR,1649665866
514,Katete,-0.7818,29.7544,78.42,52,77,2.17,UG,1649665866
515,Am Timan,11.0297,20.2827,94.35,33,40,8.34,TD,1649665867
516,Litovko,49.2361,135.1742,32.72,100,100,3.96,RU,1649665867
517,Eyl,7.9803,49.8164,88.93,55,34,10.98,SO,1649665868
518,Bowen,-20.0167,148.2333,79.34,79,89,16.13,AU,1649665868
519,Sechura,-5.5569,-80.8222,68.86,85,100,10.58,PE,1649665868
520,Beyneu,45.3167,55.2,67.48,38,0,2.55,KZ,1649665869
521,Hornepayne,49.2138,-84.7705,33.42,91,97,8.88,CA,1649665869
522,Dapdap,12.062,125.4881,79.79,88,98,11.65,PH,1649665870
523,Dhārchula,29.85,80.5333,91.83,12,4,7.96,IN,1649665870
524,Susuman,62.7833,148.1667,-1.21,86,79,1.7,RU,1649665871
525,Kostanay,53.1667,63.5833,52.09,43,75,15.66,KZ,1649665872
526,Springfield,37.2153,-93.2982,57.22,91,100,9.22,US,1649665605
527,Saint-Louis,16.3333,-15.0,65.84,38,21,13.89,SN,1649665872
528,Casablanca,33.5928,-7.6192,60.82,87,19,6.91,MA,1649665873
529,Porto Velho,-8.7619,-63.9039,73.45,94,20,2.3,BR,1649665807
530,Porto Santo,33.072,-16.3415,61.18,72,40,16.11,PT,1649665873
531,Manokwari,-0.8667,134.0833,80.02,81,100,6.38,ID,1649665873
532,Iwaki,37.05,140.8833,75.81,81,90,3.0,JP,1649665874
533,Dauphin,51.1494,-100.0502,32.14,80,0,5.75,CA,1649665874
534,Chiang Rai,19.9167,99.9167,99.3,49,20,4.61,TH,1649665874
535,Clyde River,70.4692,-68.5914,-1.97,84,100,3.44,CA,1649665875
536,Grootfontein,-19.5667,18.1167,76.73,50,1,8.41,NA,1649665875
537,Nadezhda,44.1,44.6,67.71,49,77,13.69,RU,1649665876
538,Russell,32.3502,-85.1999,54.63,92,20,0.0,US,1649665876
539,Taos,36.4072,-105.5731,44.2,35,100,8.01,US,1649665877
540,Luján,-34.5703,-59.105,64.11,93,100,1.01,AR,1649665878
541,Kadambūr,8.9833,77.8667,94.24,41,100,4.05,IN,1649665878
542,Eshowe,-28.8865,31.4699,60.06,98,100,4.81,ZA,1649665880
543,Yarmolyntsi,49.1924,26.8373,43.02,49,100,15.32,UA,1649665880
544,San Vicente,-26.6167,-54.1333,63.39,99,100,2.21,AR,1649665880
545,Nuuk,64.1835,-51.7216,30.81,64,75,5.75,GL,1649665881
546,Umeå,63.8284,20.2597,32.92,100,75,4.61,SE,1649665881
547,La Ronge,55.1001,-105.2842,16.05,79,100,16.11,CA,1649665881
548,Polyarny,69.1989,33.4478,33.46,88,72,15.23,RU,1649665882
549,Oussouye,12.485,-16.5469,68.09,52,11,8.12,SN,1649665882
550,Sungai Penuh,-2.0833,101.3833,73.33,81,76,4.14,ID,1649665883
551,Cherëmukhovo,60.3484,59.9851,44.8,92,88,5.77,RU,1649665883
552,Sanguéya,10.7,-14.3667,80.56,57,24,4.32,GN,1649665883
553,Columbia,34.0007,-81.0348,52.72,74,0,0.0,US,1649665449
554,Kamaishi,39.2667,141.8833,61.43,62,75,9.51,JP,1649665711
555,Araranguá,-28.9347,-49.4858,66.99,95,100,2.51,BR,1649665884
